[
    {
      "name": "Todd Marshall",
      "city": "Riga",
      "country": "Latvia",
      "latitude": 56.9496,
      "longitude": 24.1052,
      "friends": []
    },
    {
      "name": "Laura Sanders",
      "city": "Budapest",
      "country": "Hungary",
      "latitude": 47.4979,
      "longitude": 19.0402,
      "friends": [
        {
          "name": "Todd Marshall",
          "meeting_city": "Todd Marshall"
        }
      ]
    },
    {
      "name": "Laura Morris",
      "city": "Innsbruck",
      "country": "Austria",
      "latitude": 47.2692,
      "longitude": 11.4041,
      "friends": [
        {
          "name": "Laura Sanders",
          "meeting_city": "Laura Morris"
        },
        {
          "name": "Todd Marshall",
          "meeting_city": "Todd Marshall"
        }
      ]
    },
    {
      "name": "Victor Powell",
      "city": "Kópavogur",
      "country": "Iceland",
      "latitude": 64.1122,
      "longitude": -21.9131,
      "friends": [
        {
          "name": "Todd Marshall",
          "meeting_city": "Tampere"
        },
        {
          "name": "Laura Sanders",
          "meeting_city": "Victor Powell"
        },
        {
          "name": "Laura Morris",
          "meeting_city": "Victor Powell"
        }
      ]
    },
    {
      "name": "Gerald Bryant",
      "city": "Vancouver",
      "country": "Canada",
      "latitude": 49.2827,
      "longitude": -123.1207,
      "friends": []
    },
    {
      "name": "Vic Ross",
      "city": "Marseille",
      "country": "France",
      "latitude": 43.2965,
      "longitude": 5.3698,
      "friends": [
        {
          "name": "Laura Morris",
          "meeting_city": "Differdange"
        },
        {
          "name": "Laura Sanders",
          "meeting_city": "Laura Sanders"
        },
        {
          "name": "Gerald Bryant",
          "meeting_city": "Vic Ross"
        },
        {
          "name": "Victor Powell",
          "meeting_city": "Victor Powell"
        },
        {
          "name": "Todd Marshall",
          "meeting_city": "Vic Ross"
        }
      ]
    },
    {
      "name": "Donn Boyd",
      "city": "Oulu",
      "country": "Finland",
      "latitude": 65.0121,
      "longitude": 25.4651,
      "friends": [
        {
          "name": "Laura Morris",
          "meeting_city": "Vienna"
        },
        {
          "name": "Laura Sanders",
          "meeting_city": "Adelaide"
        }
      ]
    },
    {
      "name": "Deborah Howard",
      "city": "Chengdu",
      "country": "China",
      "latitude": 30.5728,
      "longitude": 104.0668,
      "friends": [
        {
          "name": "Gerald Bryant",
          "meeting_city": "Gerald Bryant"
        }
      ]
    },
    {
      "name": "Dorothy Boyd",
      "city": "Waterford",
      "country": "Ireland",
      "latitude": 52.2593,
      "longitude": -7.1101,
      "friends": [
        {
          "name": "Victor Powell",
          "meeting_city": "Dorothy Boyd"
        },
        {
          "name": "Laura Morris",
          "meeting_city": "Braga"
        }
      ]
    },
    {
      "name": "Laura Bryant",
      "city": "Pécs",
      "country": "Hungary",
      "latitude": 46.0727,
      "longitude": 18.2323,
      "friends": []
    },
    {
      "name": "Barbara Tucker",
      "city": "Esbjerg",
      "country": "Denmark",
      "latitude": 55.4668,
      "longitude": 8.4517,
      "friends": [
        {
          "name": "Donn Boyd",
          "meeting_city": "Mumbai"
        },
        {
          "name": "Laura Morris",
          "meeting_city": "Fortaleza"
        }
      ]
    },
    {
      "name": "Christopher Johnson",
      "city": "Žilina",
      "country": "Slovakia",
      "latitude": 49.2231,
      "longitude": 18.7394,
      "friends": []
    },
    {
      "name": "Kris Moreno",
      "city": "Lisburn",
      "country": "Northern Ireland",
      "latitude": 54.5162,
      "longitude": -6.0581,
      "friends": []
    },
    {
      "name": "Shawn Ramirez",
      "city": "Narva",
      "country": "Estonia",
      "latitude": 59.3772,
      "longitude": 28.1903,
      "friends": [
        {
          "name": "Laura Sanders",
          "meeting_city": "Laura Sanders"
        },
        {
          "name": "Kris Moreno",
          "meeting_city": "Kris Moreno"
        }
      ]
    },
    {
      "name": "Jeffrey Guzman",
      "city": "Daegu",
      "country": "South Korea",
      "latitude": 35.8714,
      "longitude": 128.6014,
      "friends": [
        {
          "name": "Deborah Howard",
          "meeting_city": "Thessaloniki"
        },
        {
          "name": "Laura Bryant",
          "meeting_city": "Laura Bryant"
        }
      ]
    },
    {
      "name": "Kimberly Lee",
      "city": "Constanța",
      "country": "Romania",
      "latitude": 44.1733,
      "longitude": 28.6383,
      "friends": [
        {
          "name": "Victor Powell",
          "meeting_city": "Kimberly Lee"
        },
        {
          "name": "Deborah Howard",
          "meeting_city": "Kimberly Lee"
        },
        {
          "name": "Dorothy Boyd",
          "meeting_city": "Dorothy Boyd"
        },
        {
          "name": "Laura Morris",
          "meeting_city": "Kimberly Lee"
        }
      ]
    },
    {
      "name": "Helen Marshall",
      "city": "Chengdu",
      "country": "China",
      "latitude": 30.5728,
      "longitude": 104.0668,
      "friends": [
        {
          "name": "Barbara Tucker",
          "meeting_city": "Barbara Tucker"
        },
        {
          "name": "Kris Moreno",
          "meeting_city": "Helen Marshall"
        },
        {
          "name": "Laura Morris",
          "meeting_city": "Helen Marshall"
        }
      ]
    },
    {
      "name": "Ruth Ross",
      "city": "Lisburn",
      "country": "Northern Ireland",
      "latitude": 54.5162,
      "longitude": -6.0581,
      "friends": []
    },
    {
      "name": "Willie Hamilton",
      "city": "Cologne",
      "country": "Germany",
      "latitude": 50.9375,
      "longitude": 6.9603,
      "friends": [
        {
          "name": "Laura Sanders",
          "meeting_city": "Willie Hamilton"
        }
      ]
    },
    {
      "name": "Gary Simpson",
      "city": "Limerick",
      "country": "Ireland",
      "latitude": 52.6638,
      "longitude": -8.6267,
      "friends": [
        {
          "name": "Kris Moreno",
          "meeting_city": "Gary Simpson"
        },
        {
          "name": "Christopher Johnson",
          "meeting_city": "Monterrey"
        }
      ]
    },
    {
      "name": "Mike Ross",
      "city": "Kohtla-Järve",
      "country": "Estonia",
      "latitude": 59.3984,
      "longitude": 27.2731,
      "friends": [
        {
          "name": "Shawn Ramirez",
          "meeting_city": "Shawn Ramirez"
        },
        {
          "name": "Gary Simpson",
          "meeting_city": "Kraków"
        }
      ]
    },
    {
      "name": "Emily Young",
      "city": "San Antonio",
      "country": "USA",
      "latitude": 29.4241,
      "longitude": -98.4936,
      "friends": []
    },
    {
      "name": "Kendrick Alvarez",
      "city": "Naples",
      "country": "Italy",
      "latitude": 40.8518,
      "longitude": 14.2681,
      "friends": []
    },
    {
      "name": "Michelle Ramos",
      "city": "Patras",
      "country": "Greece",
      "latitude": 38.2466,
      "longitude": 21.7346,
      "friends": [
        {
          "name": "Jeffrey Guzman",
          "meeting_city": "Michelle Ramos"
        },
        {
          "name": "Kris Moreno",
          "meeting_city": "Michelle Ramos"
        }
      ]
    },
    {
      "name": "Benjamin Powell",
      "city": "Kaunas",
      "country": "Lithuania",
      "latitude": 54.8985,
      "longitude": 23.9036,
      "friends": [
        {
          "name": "Gary Simpson",
          "meeting_city": "Benjamin Powell"
        }
      ]
    },
    {
      "name": "Jeffrey Rose",
      "city": "Constanța",
      "country": "Romania",
      "latitude": 44.1733,
      "longitude": 28.6383,
      "friends": []
    },
    {
      "name": "Jeremy Brown",
      "city": "Adelaide",
      "country": "Australia",
      "latitude": -34.9285,
      "longitude": 138.6007,
      "friends": []
    },
    {
      "name": "Burt Stone",
      "city": "Varna",
      "country": "Bulgaria",
      "latitude": 43.2141,
      "longitude": 27.9147,
      "friends": [
        {
          "name": "Kris Moreno",
          "meeting_city": "Burt Stone"
        },
        {
          "name": "Laura Sanders",
          "meeting_city": "Burt Stone"
        }
      ]
    },
    {
      "name": "Stephen Olson",
      "city": "Newry",
      "country": "Northern Ireland",
      "latitude": 54.1759,
      "longitude": -6.3374,
      "friends": [
        {
          "name": "Jeremy Brown",
          "meeting_city": "Jeremy Brown"
        }
      ]
    },
    {
      "name": "William Carter",
      "city": "Vila Nova de Gaia",
      "country": "Portugal",
      "latitude": 41.1333,
      "longitude": -8.6167,
      "friends": [
        {
          "name": "Vic Ross",
          "meeting_city": "Narva"
        },
        {
          "name": "Laura Morris",
          "meeting_city": "Panevėžys"
        }
      ]
    },
    {
      "name": "Laura Ross",
      "city": "Incheon",
      "country": "South Korea",
      "latitude": 37.4563,
      "longitude": 126.7052,
      "friends": []
    },
    {
      "name": "Frank Kennedy",
      "city": "Pécs",
      "country": "Hungary",
      "latitude": 46.0727,
      "longitude": 18.2323,
      "friends": [
        {
          "name": "Willie Hamilton",
          "meeting_city": "Limerick"
        }
      ]
    },
    {
      "name": "Timothy Dixon",
      "city": "Hyderabad",
      "country": "India",
      "latitude": 17.385,
      "longitude": 78.4867,
      "friends": [
        {
          "name": "Shawn Ramirez",
          "meeting_city": "Lyon"
        },
        {
          "name": "Barbara Tucker",
          "meeting_city": "Barbara Tucker"
        },
        {
          "name": "Emily Young",
          "meeting_city": "Emily Young"
        }
      ]
    },
    {
      "name": "Kimberly Bailey",
      "city": "Łódź",
      "country": "Poland",
      "latitude": 51.7592,
      "longitude": 19.4559,
      "friends": [
        {
          "name": "Laura Sanders",
          "meeting_city": "Milan"
        },
        {
          "name": "Michelle Ramos",
          "meeting_city": "Michelle Ramos"
        },
        {
          "name": "Victor Powell",
          "meeting_city": "Victor Powell"
        }
      ]
    },
    {
      "name": "Emily Lopez",
      "city": "Timișoara",
      "country": "Romania",
      "latitude": 45.7489,
      "longitude": 21.2087,
      "friends": [
        {
          "name": "Ruth Ross",
          "meeting_city": "Emily Lopez"
        }
      ]
    },
    {
      "name": "Laura Ford",
      "city": "Edmonton",
      "country": "Canada",
      "latitude": 53.5461,
      "longitude": -113.4938,
      "friends": [
        {
          "name": "Kimberly Lee",
          "meeting_city": "Kimberly Lee"
        }
      ]
    },
    {
      "name": "Sandra Mcdonald",
      "city": "Bangor",
      "country": "Northern Ireland",
      "latitude": 54.6598,
      "longitude": -5.6696,
      "friends": [
        {
          "name": "Stephen Olson",
          "meeting_city": "Riga"
        },
        {
          "name": "Laura Ford",
          "meeting_city": "Shanghai"
        }
      ]
    },
    {
      "name": "Timothy Ellis",
      "city": "Delhi",
      "country": "India",
      "latitude": 28.7041,
      "longitude": 77.1025,
      "friends": [
        {
          "name": "Willie Hamilton",
          "meeting_city": "Willie Hamilton"
        }
      ]
    },
    {
      "name": "Reid Jordan",
      "city": "Daejeon",
      "country": "South Korea",
      "latitude": 36.3504,
      "longitude": 127.3845,
      "friends": [
        {
          "name": "Emily Lopez",
          "meeting_city": "Emily Lopez"
        }
      ]
    },
    {
      "name": "Kimberly Chavez",
      "city": "Toronto",
      "country": "Canada",
      "latitude": 43.6532,
      "longitude": -79.3832,
      "friends": [
        {
          "name": "Kris Moreno",
          "meeting_city": "Kris Moreno"
        }
      ]
    },
    {
      "name": "Chad Kelly",
      "city": "Tallinn",
      "country": "Estonia",
      "latitude": 59.437,
      "longitude": 24.7536,
      "friends": [
        {
          "name": "Reid Jordan",
          "meeting_city": "Chad Kelly"
        },
        {
          "name": "Barbara Tucker",
          "meeting_city": "Barbara Tucker"
        },
        {
          "name": "Kris Moreno",
          "meeting_city": "Kris Moreno"
        },
        {
          "name": "Frank Kennedy",
          "meeting_city": "Frank Kennedy"
        }
      ]
    },
    {
      "name": "Austin Cox",
      "city": "Tartu",
      "country": "Estonia",
      "latitude": 58.3776,
      "longitude": 26.729,
      "friends": [
        {
          "name": "Sandra Mcdonald",
          "meeting_city": "Austin Cox"
        },
        {
          "name": "Barbara Tucker",
          "meeting_city": "Barbara Tucker"
        }
      ]
    },
    {
      "name": "Samuel Gibson",
      "city": "Esbjerg",
      "country": "Denmark",
      "latitude": 55.4668,
      "longitude": 8.4517,
      "friends": [
        {
          "name": "Michelle Ramos",
          "meeting_city": "Michelle Ramos"
        },
        {
          "name": "Jeffrey Guzman",
          "meeting_city": "Samuel Gibson"
        },
        {
          "name": "Jeremy Brown",
          "meeting_city": "Jeremy Brown"
        }
      ]
    },
    {
      "name": "Herbert Olson",
      "city": "Naples",
      "country": "Italy",
      "latitude": 40.8518,
      "longitude": 14.2681,
      "friends": [
        {
          "name": "Kimberly Bailey",
          "meeting_city": "Herbert Olson"
        },
        {
          "name": "Jeffrey Rose",
          "meeting_city": "Jeffrey Rose"
        },
        {
          "name": "Donn Boyd",
          "meeting_city": "Donn Boyd"
        },
        {
          "name": "Helen Marshall",
          "meeting_city": "Herbert Olson"
        }
      ]
    },
    {
      "name": "Bruce Wagner",
      "city": "Tallinn",
      "country": "Estonia",
      "latitude": 59.437,
      "longitude": 24.7536,
      "friends": [
        {
          "name": "Samuel Gibson",
          "meeting_city": "Bruce Wagner"
        }
      ]
    },
    {
      "name": "Karen Hicks",
      "city": "Lisburn",
      "country": "Northern Ireland",
      "latitude": 54.5162,
      "longitude": -6.0581,
      "friends": [
        {
          "name": "Chad Kelly",
          "meeting_city": "Karen Hicks"
        }
      ]
    },
    {
      "name": "Karen Simmons",
      "city": "Frankfurt",
      "country": "Germany",
      "latitude": 50.1109,
      "longitude": 8.6821,
      "friends": [
        {
          "name": "Stephen Olson",
          "meeting_city": "Stephen Olson"
        }
      ]
    },
    {
      "name": "Emily Green",
      "city": "Oulu",
      "country": "Finland",
      "latitude": 65.0121,
      "longitude": 25.4651,
      "friends": [
        {
          "name": "Frank Kennedy",
          "meeting_city": "Frank Kennedy"
        }
      ]
    },
    {
      "name": "Andrew Mason",
      "city": "Tokyo",
      "country": "Japan",
      "latitude": 35.6762,
      "longitude": 139.6503,
      "friends": [
        {
          "name": "Christopher Johnson",
          "meeting_city": "Andrew Mason"
        }
      ]
    },
    {
      "name": "Betty Thomas",
      "city": "Reykjanesbær",
      "country": "Iceland",
      "latitude": 63.9981,
      "longitude": -22.5618,
      "friends": [
        {
          "name": "Herbert Olson",
          "meeting_city": "Betty Thomas"
        }
      ]
    },
    {
      "name": "Laura Gibson",
      "city": "Kranj",
      "country": "Slovenia",
      "latitude": 46.2389,
      "longitude": 14.3556,
      "friends": []
    },
    {
      "name": "Michelle Rodriguez",
      "city": "Newry",
      "country": "Northern Ireland",
      "latitude": 54.1759,
      "longitude": -6.3374,
      "friends": [
        {
          "name": "Emily Young",
          "meeting_city": "Chicago"
        }
      ]
    },
    {
      "name": "Carol Alvarez",
      "city": "Graz",
      "country": "Austria",
      "latitude": 47.0707,
      "longitude": 15.4395,
      "friends": [
        {
          "name": "Karen Hicks",
          "meeting_city": "Carol Alvarez"
        }
      ]
    },
    {
      "name": "Helen Thompson",
      "city": "Belfast",
      "country": "Northern Ireland",
      "latitude": 54.5973,
      "longitude": -5.9301,
      "friends": [
        {
          "name": "Jeremy Brown",
          "meeting_city": "Helen Thompson"
        },
        {
          "name": "Donn Boyd",
          "meeting_city": "Donn Boyd"
        },
        {
          "name": "Jeffrey Guzman",
          "meeting_city": "Kranj"
        },
        {
          "name": "Emily Green",
          "meeting_city": "Emily Green"
        }
      ]
    },
    {
      "name": "Jeff Castro",
      "city": "Varna",
      "country": "Bulgaria",
      "latitude": 43.2141,
      "longitude": 27.9147,
      "friends": [
        {
          "name": "Christopher Johnson",
          "meeting_city": "Christopher Johnson"
        },
        {
          "name": "Reid Jordan",
          "meeting_city": "Luxembourg City"
        }
      ]
    },
    {
      "name": "Sharon Ellis",
      "city": "Prague",
      "country": "Czech Republic",
      "latitude": 50.0755,
      "longitude": 14.4378,
      "friends": [
        {
          "name": "Reid Jordan",
          "meeting_city": "Uppsala"
        },
        {
          "name": "Jeremy Brown",
          "meeting_city": "Jeremy Brown"
        }
      ]
    },
    {
      "name": "Benjamin Simpson",
      "city": "New York",
      "country": "USA",
      "latitude": 40.7128,
      "longitude": -74.006,
      "friends": [
        {
          "name": "Sandra Mcdonald",
          "meeting_city": "Sandra Mcdonald"
        },
        {
          "name": "Emily Young",
          "meeting_city": "Riga"
        }
      ]
    },
    {
      "name": "Nathan Hill",
      "city": "Trondheim",
      "country": "Norway",
      "latitude": 63.4305,
      "longitude": 10.3951,
      "friends": [
        {
          "name": "Jeffrey Guzman",
          "meeting_city": "Nathan Hill"
        }
      ]
    },
    {
      "name": "Scott Gordon",
      "city": "Thessaloniki",
      "country": "Greece",
      "latitude": 40.6401,
      "longitude": 22.9444,
      "friends": [
        {
          "name": "Benjamin Powell",
          "meeting_city": "Scott Gordon"
        },
        {
          "name": "Gary Simpson",
          "meeting_city": "Newry"
        }
      ]
    },
    {
      "name": "Deborah Perry",
      "city": "Eindhoven",
      "country": "Netherlands",
      "latitude": 51.4416,
      "longitude": 5.4697,
      "friends": [
        {
          "name": "Bruce Wagner",
          "meeting_city": "Deborah Perry"
        }
      ]
    },
    {
      "name": "Edwin Myers",
      "city": "Copenhagen",
      "country": "Denmark",
      "latitude": 55.6761,
      "longitude": 12.5683,
      "friends": [
        {
          "name": "Emily Green",
          "meeting_city": "Fukuoka"
        },
        {
          "name": "Karen Hicks",
          "meeting_city": "Edwin Myers"
        }
      ]
    },
    {
      "name": "Helen Hamilton",
      "city": "Madrid",
      "country": "Spain",
      "latitude": 40.4168,
      "longitude": -3.7038,
      "friends": [
        {
          "name": "Helen Marshall",
          "meeting_city": "Helen Hamilton"
        },
        {
          "name": "Jeremy Brown",
          "meeting_city": "Bern"
        },
        {
          "name": "Barbara Tucker",
          "meeting_city": "Helen Hamilton"
        }
      ]
    },
    {
      "name": "Deborah Russell",
      "city": "Monterrey",
      "country": "Mexico",
      "latitude": 25.6866,
      "longitude": -100.3161,
      "friends": [
        {
          "name": "Michelle Rodriguez",
          "meeting_city": "Michelle Rodriguez"
        }
      ]
    },
    {
      "name": "Nancy Hamilton",
      "city": "Zurich",
      "country": "Switzerland",
      "latitude": 47.3769,
      "longitude": 8.5417,
      "friends": [
        {
          "name": "Nathan Hill",
          "meeting_city": "Nathan Hill"
        },
        {
          "name": "Scott Gordon",
          "meeting_city": "Nancy Hamilton"
        },
        {
          "name": "Deborah Russell",
          "meeting_city": "Deborah Russell"
        },
        {
          "name": "Karen Simmons",
          "meeting_city": "Nancy Hamilton"
        }
      ]
    },
    {
      "name": "Donna Dixon",
      "city": "Fukuoka",
      "country": "Japan",
      "latitude": 33.5902,
      "longitude": 130.4017,
      "friends": [
        {
          "name": "Helen Hamilton",
          "meeting_city": "Helen Hamilton"
        }
      ]
    },
    {
      "name": "Carol Smith",
      "city": "Seoul",
      "country": "South Korea",
      "latitude": 37.5665,
      "longitude": 126.978,
      "friends": [
        {
          "name": "Timothy Ellis",
          "meeting_city": "Timothy Ellis"
        }
      ]
    },
    {
      "name": "Harold Herrera",
      "city": "Aalborg",
      "country": "Denmark",
      "latitude": 57.0488,
      "longitude": 9.9217,
      "friends": [
        {
          "name": "Kimberly Chavez",
          "meeting_city": "Kimberly Chavez"
        }
      ]
    },
    {
      "name": "Michelle Boyd",
      "city": "Vilnius",
      "country": "Lithuania",
      "latitude": 54.6872,
      "longitude": 25.2797,
      "friends": [
        {
          "name": "Kimberly Bailey",
          "meeting_city": "Michelle Boyd"
        }
      ]
    },
    {
      "name": "Walter Thompson",
      "city": "Dudelange",
      "country": "Luxembourg",
      "latitude": 49.4808,
      "longitude": 6.0875,
      "friends": [
        {
          "name": "Todd Marshall",
          "meeting_city": "Todd Marshall"
        },
        {
          "name": "Emily Young",
          "meeting_city": "Walter Thompson"
        }
      ]
    },
    {
      "name": "Carlos Wells",
      "city": "Klaipėda",
      "country": "Lithuania",
      "latitude": 55.7033,
      "longitude": 21.1443,
      "friends": [
        {
          "name": "Karen Hicks",
          "meeting_city": "Karen Hicks"
        }
      ]
    },
    {
      "name": "Travis Webb",
      "city": "Houston",
      "country": "USA",
      "latitude": 29.7604,
      "longitude": -95.3698,
      "friends": [
        {
          "name": "Kimberly Chavez",
          "meeting_city": "Kimberly Chavez"
        },
        {
          "name": "Austin Cox",
          "meeting_city": "Austin Cox"
        },
        {
          "name": "Helen Marshall",
          "meeting_city": "Travis Webb"
        },
        {
          "name": "Sandra Mcdonald",
          "meeting_city": "Jūrmala"
        }
      ]
    },
    {
      "name": "Kimberly Wells",
      "city": "Warsaw",
      "country": "Poland",
      "latitude": 52.2297,
      "longitude": 21.0122,
      "friends": []
    },
    {
      "name": "Jeffery Owens",
      "city": "Philadelphia",
      "country": "USA",
      "latitude": 39.9526,
      "longitude": -75.1652,
      "friends": [
        {
          "name": "Laura Ross",
          "meeting_city": "Uppsala"
        }
      ]
    },
    {
      "name": "Lamont Butler",
      "city": "Celje",
      "country": "Slovenia",
      "latitude": 46.2309,
      "longitude": 15.2604,
      "friends": []
    },
    {
      "name": "Daniel Chen",
      "city": "London",
      "country": "UK",
      "latitude": 51.5074,
      "longitude": -0.1278,
      "friends": []
    },
    {
      "name": "Willie Phillips",
      "city": "Utrecht",
      "country": "Netherlands",
      "latitude": 52.0907,
      "longitude": 5.1214,
      "friends": []
    },
    {
      "name": "Sandra Myers",
      "city": "Barcelona",
      "country": "Spain",
      "latitude": 41.3851,
      "longitude": 2.1734,
      "friends": [
        {
          "name": "Betty Thomas",
          "meeting_city": "Sandra Myers"
        }
      ]
    },
    {
      "name": "Michelle Sanchez",
      "city": "Salvador",
      "country": "Brazil",
      "latitude": -12.9714,
      "longitude": -38.5011,
      "friends": [
        {
          "name": "Herbert Olson",
          "meeting_city": "Herbert Olson"
        }
      ]
    },
    {
      "name": "Betty Barnes",
      "city": "Pécs",
      "country": "Hungary",
      "latitude": 46.0727,
      "longitude": 18.2323,
      "friends": []
    },
    {
      "name": "Benjamin Hicks",
      "city": "Dudelange",
      "country": "Luxembourg",
      "latitude": 49.4808,
      "longitude": 6.0875,
      "friends": [
        {
          "name": "Emily Green",
          "meeting_city": "Benjamin Hicks"
        },
        {
          "name": "Shawn Ramirez",
          "meeting_city": "Benjamin Hicks"
        },
        {
          "name": "Gary Simpson",
          "meeting_city": "Gary Simpson"
        }
      ]
    },
    {
      "name": "Emily Bell",
      "city": "New York",
      "country": "USA",
      "latitude": 40.7128,
      "longitude": -74.006,
      "friends": []
    },
    {
      "name": "Nancy Boyd",
      "city": "Constanța",
      "country": "Romania",
      "latitude": 44.1733,
      "longitude": 28.6383,
      "friends": []
    },
    {
      "name": "Collin Castro",
      "city": "Łódź",
      "country": "Poland",
      "latitude": 51.7592,
      "longitude": 19.4559,
      "friends": [
        {
          "name": "Karen Hicks",
          "meeting_city": "Karen Hicks"
        },
        {
          "name": "Laura Ross",
          "meeting_city": "Laura Ross"
        }
      ]
    },
    {
      "name": "James Brooks",
      "city": "Graz",
      "country": "Austria",
      "latitude": 47.0707,
      "longitude": 15.4395,
      "friends": [
        {
          "name": "Travis Webb",
          "meeting_city": "James Brooks"
        },
        {
          "name": "Kimberly Wells",
          "meeting_city": "James Brooks"
        },
        {
          "name": "Vic Ross",
          "meeting_city": "Vic Ross"
        }
      ]
    },
    {
      "name": "Paul Ross",
      "city": "Bern",
      "country": "Switzerland",
      "latitude": 46.9479,
      "longitude": 7.4474,
      "friends": [
        {
          "name": "Emily Lopez",
          "meeting_city": "Paul Ross"
        }
      ]
    },
    {
      "name": "Sandra Burns",
      "city": "Aarhus",
      "country": "Denmark",
      "latitude": 56.1629,
      "longitude": 10.2039,
      "friends": [
        {
          "name": "Betty Barnes",
          "meeting_city": "Betty Barnes"
        }
      ]
    },
    {
      "name": "Herbert Wells",
      "city": "Lyon",
      "country": "France",
      "latitude": 45.764,
      "longitude": 4.8357,
      "friends": [
        {
          "name": "Nathan Hill",
          "meeting_city": "Nathan Hill"
        },
        {
          "name": "Deborah Russell",
          "meeting_city": "Herbert Wells"
        }
      ]
    },
    {
      "name": "Tanner Fernandez",
      "city": "Utrecht",
      "country": "Netherlands",
      "latitude": 52.0907,
      "longitude": 5.1214,
      "friends": [
        {
          "name": "Kimberly Wells",
          "meeting_city": "Tanner Fernandez"
        },
        {
          "name": "Walter Thompson",
          "meeting_city": "Walter Thompson"
        }
      ]
    },
    {
      "name": "Troy Mcdonald",
      "city": "San Antonio",
      "country": "USA",
      "latitude": 29.4241,
      "longitude": -98.4936,
      "friends": [
        {
          "name": "Herbert Wells",
          "meeting_city": "Troy Mcdonald"
        },
        {
          "name": "Vic Ross",
          "meeting_city": "Vic Ross"
        },
        {
          "name": "Sandra Burns",
          "meeting_city": "Sandra Burns"
        },
        {
          "name": "Betty Barnes",
          "meeting_city": "Betty Barnes"
        }
      ]
    },
    {
      "name": "Sharon Castillo",
      "city": "Salzburg",
      "country": "Austria",
      "latitude": 47.8095,
      "longitude": 13.055,
      "friends": []
    },
    {
      "name": "Jennifer Davis",
      "city": "Birmingham",
      "country": "UK",
      "latitude": 52.4862,
      "longitude": -1.8904,
      "friends": [
        {
          "name": "Daniel Chen",
          "meeting_city": "Jennifer Davis"
        }
      ]
    },
    {
      "name": "Dorothy Watson",
      "city": "Seville",
      "country": "Spain",
      "latitude": 37.3891,
      "longitude": -5.9845,
      "friends": [
        {
          "name": "Lamont Butler",
          "meeting_city": "Lamont Butler"
        },
        {
          "name": "Samuel Gibson",
          "meeting_city": "Dorothy Watson"
        },
        {
          "name": "Chad Kelly",
          "meeting_city": "Chad Kelly"
        }
      ]
    },
    {
      "name": "Edwin Bell",
      "city": "New York",
      "country": "USA",
      "latitude": 40.7128,
      "longitude": -74.006,
      "friends": [
        {
          "name": "Nancy Boyd",
          "meeting_city": "Nancy Boyd"
        },
        {
          "name": "Nathan Hill",
          "meeting_city": "Nathan Hill"
        }
      ]
    },
    {
      "name": "Ruth Howard",
      "city": "Melbourne",
      "country": "Australia",
      "latitude": -37.8136,
      "longitude": 144.9631,
      "friends": [
        {
          "name": "Nathan Hill",
          "meeting_city": "Ruth Howard"
        }
      ]
    },
    {
      "name": "Lamont Collins",
      "city": "Bergen",
      "country": "Norway",
      "latitude": 60.3913,
      "longitude": 5.3221,
      "friends": [
        {
          "name": "Harold Herrera",
          "meeting_city": "Lamont Collins"
        },
        {
          "name": "Bruce Wagner",
          "meeting_city": "Bruce Wagner"
        }
      ]
    },
    {
      "name": "Carol Wagner",
      "city": "Chengdu",
      "country": "China",
      "latitude": 30.5728,
      "longitude": 104.0668,
      "friends": [
        {
          "name": "James Brooks",
          "meeting_city": "Carol Wagner"
        },
        {
          "name": "Dorothy Boyd",
          "meeting_city": "Dorothy Boyd"
        },
        {
          "name": "Scott Gordon",
          "meeting_city": "Scott Gordon"
        }
      ]
    },
    {
      "name": "Lisa Castro",
      "city": "Miskolc",
      "country": "Hungary",
      "latitude": 48.1034,
      "longitude": 20.7784,
      "friends": []
    },
    {
      "name": "Emily Medina",
      "city": "Marseille",
      "country": "France",
      "latitude": 43.2965,
      "longitude": 5.3698,
      "friends": [
        {
          "name": "Carlos Wells",
          "meeting_city": "Carlos Wells"
        },
        {
          "name": "Laura Ford",
          "meeting_city": "Bangor"
        },
        {
          "name": "Laura Ross",
          "meeting_city": "Laura Ross"
        }
      ]
    },
    {
      "name": "Kenton Evans",
      "city": "Kohtla-Järve",
      "country": "Estonia",
      "latitude": 59.3984,
      "longitude": 27.2731,
      "friends": [
        {
          "name": "William Carter",
          "meeting_city": "William Carter"
        }
      ]
    },
    {
      "name": "Wayne Adams",
      "city": "Banská Bystrica",
      "country": "Slovakia",
      "latitude": 48.7363,
      "longitude": 19.1531,
      "friends": [
        {
          "name": "Carol Wagner",
          "meeting_city": "Wayne Adams"
        },
        {
          "name": "Jeremy Brown",
          "meeting_city": "Wayne Adams"
        }
      ]
    },
    {
      "name": "Raymond Mendoza",
      "city": "Ostrava",
      "country": "Czech Republic",
      "latitude": 49.8209,
      "longitude": 18.2625,
      "friends": []
    },
    {
      "name": "Victor Patel",
      "city": "Odense",
      "country": "Denmark",
      "latitude": 55.4038,
      "longitude": 10.4024,
      "friends": [
        {
          "name": "Carlos Wells",
          "meeting_city": "Victor Patel"
        },
        {
          "name": "Edwin Bell",
          "meeting_city": "Edwin Bell"
        }
      ]
    },
    {
      "name": "Nicholas Morris",
      "city": "Incheon",
      "country": "South Korea",
      "latitude": 37.4563,
      "longitude": 126.7052,
      "friends": []
    },
    {
      "name": "Daniel Stone",
      "city": "Seoul",
      "country": "South Korea",
      "latitude": 37.5665,
      "longitude": 126.978,
      "friends": [
        {
          "name": "Emily Young",
          "meeting_city": "Emily Young"
        },
        {
          "name": "Wayne Adams",
          "meeting_city": "Esch-sur-Alzette"
        }
      ]
    },
    {
      "name": "Roy Mendoza",
      "city": "Eindhoven",
      "country": "Netherlands",
      "latitude": 51.4416,
      "longitude": 5.4697,
      "friends": [
        {
          "name": "Jeff Castro",
          "meeting_city": "Jeff Castro"
        },
        {
          "name": "Edwin Bell",
          "meeting_city": "Brno"
        },
        {
          "name": "Chad Kelly",
          "meeting_city": "Plovdiv"
        },
        {
          "name": "Kimberly Lee",
          "meeting_city": "Kópavogur"
        }
      ]
    },
    {
      "name": "Collin Mendoza",
      "city": "Fortaleza",
      "country": "Brazil",
      "latitude": -3.7319,
      "longitude": -38.5267,
      "friends": [
        {
          "name": "Donn Boyd",
          "meeting_city": "Donn Boyd"
        },
        {
          "name": "Sandra Mcdonald",
          "meeting_city": "Collin Mendoza"
        }
      ]
    },
    {
      "name": "Deborah Hunter",
      "city": "Bern",
      "country": "Switzerland",
      "latitude": 46.9479,
      "longitude": 7.4474,
      "friends": [
        {
          "name": "Benjamin Hicks",
          "meeting_city": "Dudelange"
        },
        {
          "name": "William Carter",
          "meeting_city": "Deborah Hunter"
        },
        {
          "name": "Herbert Olson",
          "meeting_city": "Herbert Olson"
        }
      ]
    },
    {
      "name": "Theo Robertson",
      "city": "Kaunas",
      "country": "Lithuania",
      "latitude": 54.8985,
      "longitude": 23.9036,
      "friends": []
    },
    {
      "name": "Ruth Vargas",
      "city": "Burgas",
      "country": "Bulgaria",
      "latitude": 42.5048,
      "longitude": 27.4626,
      "friends": [
        {
          "name": "Kimberly Wells",
          "meeting_city": "Kimberly Wells"
        }
      ]
    },
    {
      "name": "Jermaine Robertson",
      "city": "Sapporo",
      "country": "Japan",
      "latitude": 43.0618,
      "longitude": 141.3545,
      "friends": []
    },
    {
      "name": "Chip Hamilton",
      "city": "Jelgava",
      "country": "Latvia",
      "latitude": 56.6511,
      "longitude": 23.7214,
      "friends": [
        {
          "name": "Troy Mcdonald",
          "meeting_city": "Chip Hamilton"
        }
      ]
    },
    {
      "name": "Susan Wilson",
      "city": "Łódź",
      "country": "Poland",
      "latitude": 51.7592,
      "longitude": 19.4559,
      "friends": []
    },
    {
      "name": "Ernest Hicks",
      "city": "Bergen",
      "country": "Norway",
      "latitude": 60.3913,
      "longitude": 5.3221,
      "friends": [
        {
          "name": "Walter Thompson",
          "meeting_city": "Ernest Hicks"
        }
      ]
    },
    {
      "name": "Carol Reyes",
      "city": "Utrecht",
      "country": "Netherlands",
      "latitude": 52.0907,
      "longitude": 5.1214,
      "friends": []
    },
    {
      "name": "Fabian Boyd",
      "city": "Cluj-Napoca",
      "country": "Romania",
      "latitude": 46.7712,
      "longitude": 23.6236,
      "friends": [
        {
          "name": "Collin Mendoza",
          "meeting_city": "Fabian Boyd"
        }
      ]
    },
    {
      "name": "Kimberly Aguilar",
      "city": "Porto",
      "country": "Portugal",
      "latitude": 41.1579,
      "longitude": -8.6291,
      "friends": [
        {
          "name": "Ruth Ross",
          "meeting_city": "Kimberly Aguilar"
        }
      ]
    },
    {
      "name": "Chad Vargas",
      "city": "San Jose",
      "country": "USA",
      "latitude": 37.3382,
      "longitude": -121.8863,
      "friends": [
        {
          "name": "Paul Ross",
          "meeting_city": "Calgary"
        }
      ]
    },
    {
      "name": "Tanner Barnes",
      "city": "Aalborg",
      "country": "Denmark",
      "latitude": 57.0488,
      "longitude": 9.9217,
      "friends": []
    },
    {
      "name": "Linda Tucker",
      "city": "Reykjavik",
      "country": "Iceland",
      "latitude": 64.1466,
      "longitude": -21.9426,
      "friends": [
        {
          "name": "Jeff Castro",
          "meeting_city": "Linda Tucker"
        },
        {
          "name": "Christopher Johnson",
          "meeting_city": "Christopher Johnson"
        }
      ]
    },
    {
      "name": "Willie Butler",
      "city": "Tallinn",
      "country": "Estonia",
      "latitude": 59.437,
      "longitude": 24.7536,
      "friends": []
    },
    {
      "name": "Helen Campbell",
      "city": "Cologne",
      "country": "Germany",
      "latitude": 50.9375,
      "longitude": 6.9603,
      "friends": []
    },
    {
      "name": "Dorothy Baker",
      "city": "Akureyri",
      "country": "Iceland",
      "latitude": 65.6839,
      "longitude": -18.1105,
      "friends": []
    },
    {
      "name": "Karen Sanchez",
      "city": "Guangzhou",
      "country": "China",
      "latitude": 23.1291,
      "longitude": 113.2644,
      "friends": []
    },
    {
      "name": "Dennis Ellis",
      "city": "Poznań",
      "country": "Poland",
      "latitude": 52.4064,
      "longitude": 16.9252,
      "friends": [
        {
          "name": "Shawn Ramirez",
          "meeting_city": "Shawn Ramirez"
        },
        {
          "name": "Timothy Dixon",
          "meeting_city": "Varna"
        },
        {
          "name": "Sharon Ellis",
          "meeting_city": "Sharon Ellis"
        },
        {
          "name": "Kimberly Bailey",
          "meeting_city": "Kimberly Bailey"
        },
        {
          "name": "James Brooks",
          "meeting_city": "Dennis Ellis"
        }
      ]
    },
    {
      "name": "Carol Henry",
      "city": "Braga",
      "country": "Portugal",
      "latitude": 41.5454,
      "longitude": -8.4265,
      "friends": []
    },
    {
      "name": "Sal Burns",
      "city": "Salvador",
      "country": "Brazil",
      "latitude": -12.9714,
      "longitude": -38.5011,
      "friends": [
        {
          "name": "Vic Ross",
          "meeting_city": "Vic Ross"
        }
      ]
    },
    {
      "name": "Theo Torres",
      "city": "Tijuana",
      "country": "Mexico",
      "latitude": 32.5149,
      "longitude": -117.0382,
      "friends": [
        {
          "name": "Gerald Bryant",
          "meeting_city": "Theo Torres"
        }
      ]
    },
    {
      "name": "Michelle Miller",
      "city": "Trondheim",
      "country": "Norway",
      "latitude": 63.4305,
      "longitude": 10.3951,
      "friends": [
        {
          "name": "Collin Castro",
          "meeting_city": "Collin Castro"
        },
        {
          "name": "Deborah Perry",
          "meeting_city": "Michelle Miller"
        },
        {
          "name": "Ruth Howard",
          "meeting_city": "Michelle Miller"
        }
      ]
    },
    {
      "name": "Trent Brooks",
      "city": "Utrecht",
      "country": "Netherlands",
      "latitude": 52.0907,
      "longitude": 5.1214,
      "friends": []
    },
    {
      "name": "Justin Reed",
      "city": "Barcelona",
      "country": "Spain",
      "latitude": 41.3851,
      "longitude": 2.1734,
      "friends": []
    },
    {
      "name": "Barry Webb",
      "city": "Monterrey",
      "country": "Mexico",
      "latitude": 25.6866,
      "longitude": -100.3161,
      "friends": [
        {
          "name": "Ruth Howard",
          "meeting_city": "Ruth Howard"
        },
        {
          "name": "Karen Simmons",
          "meeting_city": "Bratislava"
        }
      ]
    },
    {
      "name": "Benjamin Fisher",
      "city": "Vantaa",
      "country": "Finland",
      "latitude": 60.2934,
      "longitude": 25.0378,
      "friends": [
        {
          "name": "Walter Thompson",
          "meeting_city": "Walter Thompson"
        }
      ]
    },
    {
      "name": "Joshua Price",
      "city": "Espoo",
      "country": "Finland",
      "latitude": 60.2055,
      "longitude": 24.6559,
      "friends": [
        {
          "name": "Helen Marshall",
          "meeting_city": "Plovdiv"
        }
      ]
    },
    {
      "name": "Justin Bailey",
      "city": "Pärnu",
      "country": "Estonia",
      "latitude": 58.3858,
      "longitude": 24.4966,
      "friends": [
        {
          "name": "Victor Patel",
          "meeting_city": "Jūrmala"
        },
        {
          "name": "Tanner Barnes",
          "meeting_city": "Tanner Barnes"
        }
      ]
    },
    {
      "name": "Jacob Mason",
      "city": "Palermo",
      "country": "Italy",
      "latitude": 38.1157,
      "longitude": 13.3615,
      "friends": []
    },
    {
      "name": "Betty Tucker",
      "city": "Jūrmala",
      "country": "Latvia",
      "latitude": 56.9682,
      "longitude": 23.7703,
      "friends": [
        {
          "name": "Michelle Miller",
          "meeting_city": "Michelle Miller"
        }
      ]
    },
    {
      "name": "Joseph Graham",
      "city": "Hyderabad",
      "country": "India",
      "latitude": 17.385,
      "longitude": 78.4867,
      "friends": []
    },
    {
      "name": "Fred Porter",
      "city": "Zaragoza",
      "country": "Spain",
      "latitude": 41.6488,
      "longitude": -0.8891,
      "friends": [
        {
          "name": "Kimberly Bailey",
          "meeting_city": "Shanghai"
        },
        {
          "name": "Carol Alvarez",
          "meeting_city": "Fred Porter"
        },
        {
          "name": "Victor Patel",
          "meeting_city": "Jūrmala"
        },
        {
          "name": "Willie Phillips",
          "meeting_city": "Cork"
        }
      ]
    },
    {
      "name": "Jarred Stone",
      "city": "Graz",
      "country": "Austria",
      "latitude": 47.0707,
      "longitude": 15.4395,
      "friends": [
        {
          "name": "Benjamin Fisher",
          "meeting_city": "Geneva"
        },
        {
          "name": "Helen Campbell",
          "meeting_city": "Jarred Stone"
        }
      ]
    },
    {
      "name": "Kimberly Smith",
      "city": "Koper",
      "country": "Slovenia",
      "latitude": 45.5481,
      "longitude": 13.7302,
      "friends": [
        {
          "name": "Carol Wagner",
          "meeting_city": "Carol Wagner"
        },
        {
          "name": "Helen Campbell",
          "meeting_city": "Helen Campbell"
        }
      ]
    },
    {
      "name": "George Jenkins",
      "city": "Vilnius",
      "country": "Lithuania",
      "latitude": 54.6872,
      "longitude": 25.2797,
      "friends": [
        {
          "name": "Gary Simpson",
          "meeting_city": "George Jenkins"
        }
      ]
    },
    {
      "name": "Deborah Hayes",
      "city": "Daugavpils",
      "country": "Latvia",
      "latitude": 55.8754,
      "longitude": 26.5362,
      "friends": [
        {
          "name": "Jennifer Davis",
          "meeting_city": "Oslo"
        }
      ]
    },
    {
      "name": "Bryant Carter",
      "city": "Esch-sur-Alzette",
      "country": "Luxembourg",
      "latitude": 49.4958,
      "longitude": 5.9803,
      "friends": [
        {
          "name": "Donna Dixon",
          "meeting_city": "Donna Dixon"
        }
      ]
    },
    {
      "name": "Dorothy Holmes",
      "city": "Reykjanesbær",
      "country": "Iceland",
      "latitude": 63.9981,
      "longitude": -22.5618,
      "friends": []
    },
    {
      "name": "Eric Burns",
      "city": "Zurich",
      "country": "Switzerland",
      "latitude": 47.3769,
      "longitude": 8.5417,
      "friends": [
        {
          "name": "Jeremy Brown",
          "meeting_city": "Eric Burns"
        }
      ]
    },
    {
      "name": "Ruth Hill",
      "city": "New York",
      "country": "USA",
      "latitude": 40.7128,
      "longitude": -74.006,
      "friends": []
    },
    {
      "name": "Helen Kim",
      "city": "Vienna",
      "country": "Austria",
      "latitude": 48.2082,
      "longitude": 16.3738,
      "friends": [
        {
          "name": "Emily Lopez",
          "meeting_city": "Pécs"
        },
        {
          "name": "Bryant Carter",
          "meeting_city": "Helen Kim"
        },
        {
          "name": "Nicholas Morris",
          "meeting_city": "Helen Kim"
        },
        {
          "name": "Herbert Wells",
          "meeting_city": "Helen Kim"
        }
      ]
    },
    {
      "name": "James Peterson",
      "city": "Calgary",
      "country": "Canada",
      "latitude": 51.0447,
      "longitude": -114.0719,
      "friends": [
        {
          "name": "Kimberly Chavez",
          "meeting_city": "James Peterson"
        }
      ]
    },
    {
      "name": "Joel Simmons",
      "city": "Kópavogur",
      "country": "Iceland",
      "latitude": 64.1122,
      "longitude": -21.9131,
      "friends": [
        {
          "name": "Mike Ross",
          "meeting_city": "Mike Ross"
        }
      ]
    },
    {
      "name": "Erwin Lee",
      "city": "Pécs",
      "country": "Hungary",
      "latitude": 46.0727,
      "longitude": 18.2323,
      "friends": [
        {
          "name": "Sharon Castillo",
          "meeting_city": "Sharon Castillo"
        },
        {
          "name": "Laura Morris",
          "meeting_city": "Laura Morris"
        },
        {
          "name": "Betty Tucker",
          "meeting_city": "Betty Tucker"
        },
        {
          "name": "Dennis Ellis",
          "meeting_city": "Paris"
        }
      ]
    },
    {
      "name": "Jose Brooks",
      "city": "Dallas",
      "country": "USA",
      "latitude": 32.7767,
      "longitude": -96.797,
      "friends": []
    },
    {
      "name": "Donna Cox",
      "city": "Hafnarfjörður",
      "country": "Iceland",
      "latitude": 64.0291,
      "longitude": -21.9685,
      "friends": [
        {
          "name": "Benjamin Hicks",
          "meeting_city": "Benjamin Hicks"
        },
        {
          "name": "Kimberly Chavez",
          "meeting_city": "Kimberly Chavez"
        }
      ]
    },
    {
      "name": "Jose Robinson",
      "city": "Adelaide",
      "country": "Australia",
      "latitude": -34.9285,
      "longitude": 138.6007,
      "friends": [
        {
          "name": "Karen Sanchez",
          "meeting_city": "Jose Robinson"
        }
      ]
    },
    {
      "name": "Carol Brooks",
      "city": "Fukuoka",
      "country": "Japan",
      "latitude": 33.5902,
      "longitude": 130.4017,
      "friends": [
        {
          "name": "Kendrick Alvarez",
          "meeting_city": "Basel"
        },
        {
          "name": "Michelle Rodriguez",
          "meeting_city": "Patras"
        }
      ]
    },
    {
      "name": "Michelle Woods",
      "city": "Zurich",
      "country": "Switzerland",
      "latitude": 47.3769,
      "longitude": 8.5417,
      "friends": [
        {
          "name": "Jacob Mason",
          "meeting_city": "Jacob Mason"
        }
      ]
    },
    {
      "name": "Mario Morris",
      "city": "Liverpool",
      "country": "UK",
      "latitude": 53.4084,
      "longitude": -2.9916,
      "friends": [
        {
          "name": "Burt Stone",
          "meeting_city": "Burt Stone"
        }
      ]
    },
    {
      "name": "Donna Wagner",
      "city": "Marseille",
      "country": "France",
      "latitude": 43.2965,
      "longitude": 5.3698,
      "friends": [
        {
          "name": "Dorothy Baker",
          "meeting_city": "Dorothy Baker"
        },
        {
          "name": "Tanner Fernandez",
          "meeting_city": "Stockholm"
        }
      ]
    },
    {
      "name": "Lisa Robinson",
      "city": "Lyon",
      "country": "France",
      "latitude": 45.764,
      "longitude": 4.8357,
      "friends": [
        {
          "name": "Karen Hicks",
          "meeting_city": "Lisa Robinson"
        },
        {
          "name": "Michelle Boyd",
          "meeting_city": "Michelle Boyd"
        }
      ]
    },
    {
      "name": "Stephen Bryant",
      "city": "Szeged",
      "country": "Hungary",
      "latitude": 46.253,
      "longitude": 20.1414,
      "friends": [
        {
          "name": "Kimberly Lee",
          "meeting_city": "Kimberly Lee"
        },
        {
          "name": "Helen Kim",
          "meeting_city": "Helen Kim"
        },
        {
          "name": "Ruth Ross",
          "meeting_city": "Stephen Bryant"
        }
      ]
    },
    {
      "name": "Alexander Muñoz",
      "city": "Stavanger",
      "country": "Norway",
      "latitude": 58.97,
      "longitude": 5.7331,
      "friends": []
    },
    {
      "name": "Brandon Mcdonald",
      "city": "Braga",
      "country": "Portugal",
      "latitude": 41.5454,
      "longitude": -8.4265,
      "friends": []
    },
    {
      "name": "Sharon Garcia",
      "city": "Gothenburg",
      "country": "Sweden",
      "latitude": 57.7089,
      "longitude": 11.9746,
      "friends": [
        {
          "name": "Sharon Ellis",
          "meeting_city": "Sharon Ellis"
        },
        {
          "name": "Michelle Woods",
          "meeting_city": "Leeds"
        },
        {
          "name": "Linda Tucker",
          "meeting_city": "Plzen"
        },
        {
          "name": "Kimberly Smith",
          "meeting_city": "Kimberly Smith"
        }
      ]
    },
    {
      "name": "Betty Henderson",
      "city": "Piraeus",
      "country": "Greece",
      "latitude": 37.9485,
      "longitude": 23.6424,
      "friends": [
        {
          "name": "Karen Simmons",
          "meeting_city": "Cologne"
        }
      ]
    },
    {
      "name": "Jarvis Turner",
      "city": "Bucharest",
      "country": "Romania",
      "latitude": 44.4268,
      "longitude": 26.1025,
      "friends": [
        {
          "name": "Susan Wilson",
          "meeting_city": "Linz"
        },
        {
          "name": "Emily Lopez",
          "meeting_city": "Jarvis Turner"
        },
        {
          "name": "Kimberly Wells",
          "meeting_city": "Jarvis Turner"
        }
      ]
    },
    {
      "name": "Jonathan Perry",
      "city": "Geneva",
      "country": "Switzerland",
      "latitude": 46.2044,
      "longitude": 6.1432,
      "friends": []
    },
    {
      "name": "Dennis Castillo",
      "city": "Sofia",
      "country": "Bulgaria",
      "latitude": 42.6977,
      "longitude": 23.3219,
      "friends": [
        {
          "name": "Collin Mendoza",
          "meeting_city": "Collin Mendoza"
        }
      ]
    },
    {
      "name": "Betty Sullivan",
      "city": "Klaipėda",
      "country": "Lithuania",
      "latitude": 55.7033,
      "longitude": 21.1443,
      "friends": [
        {
          "name": "Sandra Myers",
          "meeting_city": "Betty Sullivan"
        }
      ]
    },
    {
      "name": "Lee Gonzales",
      "city": "Linz",
      "country": "Austria",
      "latitude": 48.3069,
      "longitude": 14.2858,
      "friends": [
        {
          "name": "Carlos Wells",
          "meeting_city": "Carlos Wells"
        }
      ]
    },
    {
      "name": "Ruth Gibson",
      "city": "Salvador",
      "country": "Brazil",
      "latitude": -12.9714,
      "longitude": -38.5011,
      "friends": [
        {
          "name": "Christopher Johnson",
          "meeting_city": "Ruth Gibson"
        },
        {
          "name": "Linda Tucker",
          "meeting_city": "Poznań"
        },
        {
          "name": "Emily Bell",
          "meeting_city": "Fortaleza"
        }
      ]
    },
    {
      "name": "Emory Robertson",
      "city": "Tallinn",
      "country": "Estonia",
      "latitude": 59.437,
      "longitude": 24.7536,
      "friends": []
    },
    {
      "name": "Samuel Vasquez",
      "city": "Calgary",
      "country": "Canada",
      "latitude": 51.0447,
      "longitude": -114.0719,
      "friends": [
        {
          "name": "Helen Thompson",
          "meeting_city": "Samuel Vasquez"
        },
        {
          "name": "Lamont Butler",
          "meeting_city": "Shanghai"
        }
      ]
    },
    {
      "name": "Jeffrey Wagner",
      "city": "Valencia",
      "country": "Spain",
      "latitude": 39.4699,
      "longitude": -0.3763,
      "friends": [
        {
          "name": "Kimberly Smith",
          "meeting_city": "Kimberly Smith"
        },
        {
          "name": "Harold Herrera",
          "meeting_city": "Harold Herrera"
        }
      ]
    },
    {
      "name": "Carol Hamilton",
      "city": "Marseille",
      "country": "France",
      "latitude": 43.2965,
      "longitude": 5.3698,
      "friends": []
    },
    {
      "name": "Sharon Stevens",
      "city": "Lisbon",
      "country": "Portugal",
      "latitude": 38.7223,
      "longitude": -9.1393,
      "friends": []
    },
    {
      "name": "Samuel Wood",
      "city": "Kraków",
      "country": "Poland",
      "latitude": 50.0647,
      "longitude": 19.945,
      "friends": [
        {
          "name": "Stephen Bryant",
          "meeting_city": "Samuel Wood"
        },
        {
          "name": "Fred Porter",
          "meeting_city": "Fred Porter"
        }
      ]
    },
    {
      "name": "Kimberly Perry",
      "city": "Chennai",
      "country": "India",
      "latitude": 13.0827,
      "longitude": 80.2707,
      "friends": [
        {
          "name": "Laura Ford",
          "meeting_city": "Laura Ford"
        }
      ]
    },
    {
      "name": "Reid Edwards",
      "city": "Monterrey",
      "country": "Mexico",
      "latitude": 25.6866,
      "longitude": -100.3161,
      "friends": [
        {
          "name": "Emily Green",
          "meeting_city": "Emily Green"
        },
        {
          "name": "Emily Young",
          "meeting_city": "Guangzhou"
        },
        {
          "name": "Willie Phillips",
          "meeting_city": "Willie Phillips"
        },
        {
          "name": "Betty Barnes",
          "meeting_city": "Reid Edwards"
        }
      ]
    },
    {
      "name": "Jack White",
      "city": "Toulouse",
      "country": "France",
      "latitude": 43.6047,
      "longitude": 1.4442,
      "friends": [
        {
          "name": "Shawn Ramirez",
          "meeting_city": "Shawn Ramirez"
        },
        {
          "name": "Benjamin Fisher",
          "meeting_city": "Puebla"
        },
        {
          "name": "Edwin Bell",
          "meeting_city": "Jack White"
        }
      ]
    },
    {
      "name": "Kimberly Phillips",
      "city": "Los Angeles",
      "country": "USA",
      "latitude": 34.0522,
      "longitude": -118.2437,
      "friends": [
        {
          "name": "Frank Kennedy",
          "meeting_city": "Kimberly Phillips"
        }
      ]
    },
    {
      "name": "Emily Palmer",
      "city": "Edmonton",
      "country": "Canada",
      "latitude": 53.5461,
      "longitude": -113.4938,
      "friends": []
    },
    {
      "name": "Emily Sullivan",
      "city": "Kraków",
      "country": "Poland",
      "latitude": 50.0647,
      "longitude": 19.945,
      "friends": []
    },
    {
      "name": "Dorothy Garcia",
      "city": "Barcelona",
      "country": "Spain",
      "latitude": 41.3851,
      "longitude": 2.1734,
      "friends": [
        {
          "name": "Emily Bell",
          "meeting_city": "Emily Bell"
        },
        {
          "name": "Bruce Wagner",
          "meeting_city": "Bruce Wagner"
        }
      ]
    },
    {
      "name": "Clarence Gordon",
      "city": "Oulu",
      "country": "Finland",
      "latitude": 65.0121,
      "longitude": 25.4651,
      "friends": [
        {
          "name": "Andrew Mason",
          "meeting_city": "Andrew Mason"
        },
        {
          "name": "Jeffrey Rose",
          "meeting_city": "Jeffrey Rose"
        }
      ]
    },
    {
      "name": "Michelle Ward",
      "city": "Poznań",
      "country": "Poland",
      "latitude": 52.4064,
      "longitude": 16.9252,
      "friends": [
        {
          "name": "Sandra Mcdonald",
          "meeting_city": "Michelle Ward"
        }
      ]
    },
    {
      "name": "Sharon Patel",
      "city": "Athens",
      "country": "Greece",
      "latitude": 37.9838,
      "longitude": 23.7275,
      "friends": [
        {
          "name": "Kimberly Wells",
          "meeting_city": "Kimberly Wells"
        },
        {
          "name": "Burt Stone",
          "meeting_city": "Sharon Patel"
        }
      ]
    },
    {
      "name": "Donn Holmes",
      "city": "Galway",
      "country": "Ireland",
      "latitude": 53.2707,
      "longitude": -9.0568,
      "friends": [
        {
          "name": "Tanner Barnes",
          "meeting_city": "Tanner Barnes"
        }
      ]
    },
    {
      "name": "Francisco Parker",
      "city": "Houston",
      "country": "USA",
      "latitude": 29.7604,
      "longitude": -95.3698,
      "friends": [
        {
          "name": "Samuel Wood",
          "meeting_city": "Francisco Parker"
        },
        {
          "name": "Benjamin Powell",
          "meeting_city": "Francisco Parker"
        },
        {
          "name": "Erwin Lee",
          "meeting_city": "Francisco Parker"
        }
      ]
    },
    {
      "name": "Reid Murray",
      "city": "San Diego",
      "country": "USA",
      "latitude": 32.7157,
      "longitude": -117.1611,
      "friends": [
        {
          "name": "James Brooks",
          "meeting_city": "James Brooks"
        },
        {
          "name": "Carol Alvarez",
          "meeting_city": "Carol Alvarez"
        }
      ]
    },
    {
      "name": "Carol Tucker",
      "city": "Drammen",
      "country": "Norway",
      "latitude": 59.744,
      "longitude": 10.2045,
      "friends": [
        {
          "name": "Kris Moreno",
          "meeting_city": "Kris Moreno"
        },
        {
          "name": "Kimberly Lee",
          "meeting_city": "Marseille"
        },
        {
          "name": "Helen Marshall",
          "meeting_city": "Esbjerg"
        },
        {
          "name": "Michelle Woods",
          "meeting_city": "Michelle Woods"
        }
      ]
    },
    {
      "name": "Donna Fernandez",
      "city": "Nagoya",
      "country": "Japan",
      "latitude": 35.1815,
      "longitude": 136.9066,
      "friends": []
    },
    {
      "name": "Miguel Coleman",
      "city": "Prešov",
      "country": "Slovakia",
      "latitude": 48.9984,
      "longitude": 21.2339,
      "friends": [
        {
          "name": "Willie Butler",
          "meeting_city": "Miguel Coleman"
        },
        {
          "name": "Dennis Ellis",
          "meeting_city": "Miguel Coleman"
        },
        {
          "name": "Kimberly Smith",
          "meeting_city": "San Antonio"
        },
        {
          "name": "Todd Marshall",
          "meeting_city": "Riga"
        },
        {
          "name": "Laura Aguilar",
          "meeting_city": "Innsbruck"
        },
        {
          "name": "Laura Morris",
          "meeting_city": "Innsbruck"
        }
      ]
    },
    {
      "name": "Jesse Woods",
      "city": "San Antonio",
      "country": "USA",
      "latitude": 29.4241,
      "longitude": -98.4936,
      "friends": [
        {
          "name": "Emily Lopez",
          "meeting_city": "Pécs"
        },
        {
          "name": "Edwin Bell",
          "meeting_city": "Jesse Woods"
        },
        {
          "name": "Sandra Burns",
          "meeting_city": "Pärnu"
        },
        {
          "name": "Kris Moreno",
          "meeting_city": "Milan"
        }
      ]
    },
    {
      "name": "Dorsey Cole",
      "city": "Utrecht",
      "country": "Netherlands",
      "latitude": 52.0907,
      "longitude": 5.1214,
      "friends": []
    },
    {
      "name": "Betty Anderson",
      "city": "Phoenix",
      "country": "USA",
      "latitude": 33.4484,
      "longitude": -112.074,
      "friends": []
    },
    {
      "name": "Karen Morales",
      "city": "Pécs",
      "country": "Hungary",
      "latitude": 46.0727,
      "longitude": 18.2323,
      "friends": [
        {
          "name": "Donna Cox",
          "meeting_city": "Donna Cox"
        },
        {
          "name": "Helen Thompson",
          "meeting_city": "Helen Thompson"
        }
      ]
    },
    {
      "name": "Alan Patel",
      "city": "Reykjavik",
      "country": "Iceland",
      "latitude": 64.1466,
      "longitude": -21.9426,
      "friends": [
        {
          "name": "Alexander Muñoz",
          "meeting_city": "Alexander Muñoz"
        },
        {
          "name": "Dorothy Garcia",
          "meeting_city": "Dorothy Garcia"
        }
      ]
    },
    {
      "name": "Troy Hughes",
      "city": "Perth",
      "country": "Australia",
      "latitude": -31.9505,
      "longitude": 115.8605,
      "friends": [
        {
          "name": "Frank Kennedy",
          "meeting_city": "Troy Hughes"
        },
        {
          "name": "Kimberly Bailey",
          "meeting_city": "Braga"
        },
        {
          "name": "Brandon Mcdonald",
          "meeting_city": "Troy Hughes"
        },
        {
          "name": "Sal Burns",
          "meeting_city": "Sal Burns"
        }
      ]
    },
    {
      "name": "Michelle Porter",
      "city": "Espoo",
      "country": "Finland",
      "latitude": 60.2055,
      "longitude": 24.6559,
      "friends": []
    },
    {
      "name": "Tanner Williams",
      "city": "Poznań",
      "country": "Poland",
      "latitude": 52.4064,
      "longitude": 16.9252,
      "friends": []
    },
    {
      "name": "Donna Edwards",
      "city": "Barcelona",
      "country": "Spain",
      "latitude": 41.3851,
      "longitude": 2.1734,
      "friends": [
        {
          "name": "Karen Simmons",
          "meeting_city": "Pétange"
        }
      ]
    },
    {
      "name": "Kendrick Hamilton",
      "city": "Turin",
      "country": "Italy",
      "latitude": 45.0703,
      "longitude": 7.6869,
      "friends": [
        {
          "name": "Justin Bailey",
          "meeting_city": "Justin Bailey"
        },
        {
          "name": "Sharon Garcia",
          "meeting_city": "Derry"
        }
      ]
    },
    {
      "name": "Laura Clarke",
      "city": "Odense",
      "country": "Denmark",
      "latitude": 55.4038,
      "longitude": 10.4024,
      "friends": [
        {
          "name": "Brandon Mcdonald",
          "meeting_city": "Laura Clarke"
        },
        {
          "name": "Troy Mcdonald",
          "meeting_city": "Troy Mcdonald"
        }
      ]
    },
    {
      "name": "Jeff Castro",
      "city": "Tartu",
      "country": "Estonia",
      "latitude": 58.3776,
      "longitude": 26.729,
      "friends": [
        {
          "name": "Samuel Wood",
          "meeting_city": "Jeff Castro"
        },
        {
          "name": "Emily Lopez",
          "meeting_city": "Emily Lopez"
        },
        {
          "name": "Michelle Woods",
          "meeting_city": "Jeff Castro"
        }
      ]
    },
    {
      "name": "Lisa Holmes",
      "city": "Vienna",
      "country": "Austria",
      "latitude": 48.2082,
      "longitude": 16.3738,
      "friends": []
    },
    {
      "name": "Dorothy Burns",
      "city": "Toronto",
      "country": "Canada",
      "latitude": 43.6532,
      "longitude": -79.3832,
      "friends": [
        {
          "name": "Laura Sanders",
          "meeting_city": "Nice"
        }
      ]
    },
    {
      "name": "Milan Tran",
      "city": "Celje",
      "country": "Slovenia",
      "latitude": 46.2309,
      "longitude": 15.2604,
      "friends": [
        {
          "name": "Barbara Tucker",
          "meeting_city": "Barbara Tucker"
        },
        {
          "name": "Dorothy Watson",
          "meeting_city": "Milan Tran"
        }
      ]
    },
    {
      "name": "Andrew Burns",
      "city": "Munich",
      "country": "Germany",
      "latitude": 48.1351,
      "longitude": 11.582,
      "friends": []
    },
    {
      "name": "Alexander White",
      "city": "Riga",
      "country": "Latvia",
      "latitude": 56.9496,
      "longitude": 24.1052,
      "friends": [
        {
          "name": "Jeffrey Wagner",
          "meeting_city": "Jeffrey Wagner"
        },
        {
          "name": "Vic Ross",
          "meeting_city": "Vic Ross"
        },
        {
          "name": "Deborah Hayes",
          "meeting_city": "Alexander White"
        }
      ]
    },
    {
      "name": "Donna Porter",
      "city": "Plzen",
      "country": "Czech Republic",
      "latitude": 49.7475,
      "longitude": 13.3776,
      "friends": []
    },
    {
      "name": "Nancy Patel",
      "city": "Busan",
      "country": "South Korea",
      "latitude": 35.1796,
      "longitude": 129.0756,
      "friends": [
        {
          "name": "Herbert Olson",
          "meeting_city": "Nancy Patel"
        }
      ]
    },
    {
      "name": "Brandon Harris",
      "city": "Thessaloniki",
      "country": "Greece",
      "latitude": 40.6401,
      "longitude": 22.9444,
      "friends": [
        {
          "name": "Kimberly Bailey",
          "meeting_city": "Kimberly Bailey"
        }
      ]
    },
    {
      "name": "Oscar Jimenez",
      "city": "Klaipėda",
      "country": "Lithuania",
      "latitude": 55.7033,
      "longitude": 21.1443,
      "friends": []
    },
    {
      "name": "Karen Robinson",
      "city": "Drammen",
      "country": "Norway",
      "latitude": 59.744,
      "longitude": 10.2045,
      "friends": []
    },
    {
      "name": "Helen Shaw",
      "city": "Graz",
      "country": "Austria",
      "latitude": 47.0707,
      "longitude": 15.4395,
      "friends": []
    },
    {
      "name": "Betty Jenkins",
      "city": "Pétange",
      "country": "Luxembourg",
      "latitude": 49.5586,
      "longitude": 5.8806,
      "friends": []
    },
    {
      "name": "Brandon Hayes",
      "city": "Patras",
      "country": "Greece",
      "latitude": 38.2466,
      "longitude": 21.7346,
      "friends": []
    },
    {
      "name": "Donna Ross",
      "city": "Kraków",
      "country": "Poland",
      "latitude": 50.0647,
      "longitude": 19.945,
      "friends": []
    },
    {
      "name": "Barbara Foster",
      "city": "Šiauliai",
      "country": "Lithuania",
      "latitude": 55.9333,
      "longitude": 23.3167,
      "friends": []
    },
    {
      "name": "Abner Aguilar",
      "city": "Bergen",
      "country": "Norway",
      "latitude": 60.3913,
      "longitude": 5.3221,
      "friends": [
        {
          "name": "Roy Mendoza",
          "meeting_city": "Roy Mendoza"
        },
        {
          "name": "Collin Castro",
          "meeting_city": "Collin Castro"
        }
      ]
    },
    {
      "name": "Sarah Cooper",
      "city": "Panevėžys",
      "country": "Lithuania",
      "latitude": 55.7375,
      "longitude": 24.3697,
      "friends": []
    },
    {
      "name": "James Chen",
      "city": "Aalborg",
      "country": "Denmark",
      "latitude": 57.0488,
      "longitude": 9.9217,
      "friends": []
    },
    {
      "name": "Lisa Morris",
      "city": "Stockholm",
      "country": "Sweden",
      "latitude": 59.3293,
      "longitude": 18.0686,
      "friends": [
        {
          "name": "Deborah Hayes",
          "meeting_city": "Lisa Morris"
        }
      ]
    },
    {
      "name": "Kyle Brooks",
      "city": "Sydney",
      "country": "Australia",
      "latitude": -33.8688,
      "longitude": 151.2093,
      "friends": [
        {
          "name": "Herbert Olson",
          "meeting_city": "Kyle Brooks"
        }
      ]
    },
    {
      "name": "Avery Howard",
      "city": "The Hague",
      "country": "Netherlands",
      "latitude": 52.0705,
      "longitude": 4.3007,
      "friends": []
    },
    {
      "name": "Deborah Marshall",
      "city": "Koper",
      "country": "Slovenia",
      "latitude": 45.5481,
      "longitude": 13.7302,
      "friends": [
        {
          "name": "Benjamin Fisher",
          "meeting_city": "Benjamin Fisher"
        },
        {
          "name": "Frank Kennedy",
          "meeting_city": "Deborah Marshall"
        },
        {
          "name": "Francisco Parker",
          "meeting_city": "Liepāja"
        }
      ]
    },
    {
      "name": "Ruth Griffin",
      "city": "Tijuana",
      "country": "Mexico",
      "latitude": 32.5149,
      "longitude": -117.0382,
      "friends": []
    },
    {
      "name": "Nathan Campbell",
      "city": "Debrecen",
      "country": "Hungary",
      "latitude": 47.5316,
      "longitude": 21.6273,
      "friends": [
        {
          "name": "Gary Simpson",
          "meeting_city": "Gary Simpson"
        },
        {
          "name": "Michelle Miller",
          "meeting_city": "Michelle Miller"
        },
        {
          "name": "Sandra Myers",
          "meeting_city": "Sandra Myers"
        }
      ]
    },
    {
      "name": "Sharon Mendoza",
      "city": "São Paulo",
      "country": "Brazil",
      "latitude": -23.5505,
      "longitude": -46.6333,
      "friends": [
        {
          "name": "Barry Webb",
          "meeting_city": "Barry Webb"
        },
        {
          "name": "Austin Cox",
          "meeting_city": "Austin Cox"
        },
        {
          "name": "Joshua Price",
          "meeting_city": "Sharon Mendoza"
        },
        {
          "name": "Kimberly Bailey",
          "meeting_city": "Sharon Mendoza"
        },
        {
          "name": "Mike Ross",
          "meeting_city": "Sharon Mendoza"
        }
      ]
    },
    {
      "name": "Rupert Walker",
      "city": "Eindhoven",
      "country": "Netherlands",
      "latitude": 51.4416,
      "longitude": 5.4697,
      "friends": [
        {
          "name": "Tanner Williams",
          "meeting_city": "Tanner Williams"
        },
        {
          "name": "Edwin Bell",
          "meeting_city": "Edwin Bell"
        }
      ]
    },
    {
      "name": "Jarred Ford",
      "city": "Oslo",
      "country": "Norway",
      "latitude": 59.9139,
      "longitude": 10.7522,
      "friends": [
        {
          "name": "Andrew Burns",
          "meeting_city": "Ljubljana"
        },
        {
          "name": "Clarence Gordon",
          "meeting_city": "Jarred Ford"
        },
        {
          "name": "Bruce Wagner",
          "meeting_city": "Bruce Wagner"
        }
      ]
    },
    {
      "name": "Helen Woods",
      "city": "Sapporo",
      "country": "Japan",
      "latitude": 43.0618,
      "longitude": 141.3545,
      "friends": [
        {
          "name": "Deborah Hunter",
          "meeting_city": "Deborah Hunter"
        },
        {
          "name": "Jermaine Robertson",
          "meeting_city": "Marseille"
        }
      ]
    },
    {
      "name": "Dorothy Romero",
      "city": "Bern",
      "country": "Switzerland",
      "latitude": 46.9479,
      "longitude": 7.4474,
      "friends": []
    },
    {
      "name": "Helen Hicks",
      "city": "Lisburn",
      "country": "Northern Ireland",
      "latitude": 54.5162,
      "longitude": -6.0581,
      "friends": [
        {
          "name": "Jacob Mason",
          "meeting_city": "Helen Hicks"
        },
        {
          "name": "Mike Ross",
          "meeting_city": "Ostrava"
        }
      ]
    },
    {
      "name": "Helen Kim",
      "city": "New York",
      "country": "USA",
      "latitude": 40.7128,
      "longitude": -74.006,
      "friends": []
    },
    {
      "name": "Laura Jenkins",
      "city": "Ljubljana",
      "country": "Slovenia",
      "latitude": 46.0569,
      "longitude": 14.5058,
      "friends": [
        {
          "name": "Erwin Lee",
          "meeting_city": "Erwin Lee"
        },
        {
          "name": "Travis Webb",
          "meeting_city": "Travis Webb"
        }
      ]
    },
    {
      "name": "Jonathan Barnes",
      "city": "Cologne",
      "country": "Germany",
      "latitude": 50.9375,
      "longitude": 6.9603,
      "friends": [
        {
          "name": "Dorothy Garcia",
          "meeting_city": "Dorothy Garcia"
        },
        {
          "name": "Kris Moreno",
          "meeting_city": "Jonathan Barnes"
        }
      ]
    },
    {
      "name": "Barbara Graham",
      "city": "Porto",
      "country": "Portugal",
      "latitude": 41.1579,
      "longitude": -8.6291,
      "friends": [
        {
          "name": "Daniel Stone",
          "meeting_city": "Daniel Stone"
        },
        {
          "name": "Lamont Butler",
          "meeting_city": "Lamont Butler"
        }
      ]
    },
    {
      "name": "Francis Reed",
      "city": "Oslo",
      "country": "Norway",
      "latitude": 59.9139,
      "longitude": 10.7522,
      "friends": [
        {
          "name": "Karen Simmons",
          "meeting_city": "Francis Reed"
        },
        {
          "name": "Clarence Gordon",
          "meeting_city": "Francis Reed"
        },
        {
          "name": "Sal Burns",
          "meeting_city": "Sal Burns"
        }
      ]
    },
    {
      "name": "Karen Kim",
      "city": "Vienna",
      "country": "Austria",
      "latitude": 48.2082,
      "longitude": 16.3738,
      "friends": [
        {
          "name": "Emily Young",
          "meeting_city": "Pécs"
        },
        {
          "name": "Michelle Ramos",
          "meeting_city": "Stavanger"
        }
      ]
    },
    {
      "name": "Karen Snyder",
      "city": "Daejeon",
      "country": "South Korea",
      "latitude": 36.3504,
      "longitude": 127.3845,
      "friends": [
        {
          "name": "Susan Wilson",
          "meeting_city": "Karen Snyder"
        },
        {
          "name": "Lisa Castro",
          "meeting_city": "Lisa Castro"
        }
      ]
    },
    {
      "name": "Jordan Chavez",
      "city": "Debrecen",
      "country": "Hungary",
      "latitude": 47.5316,
      "longitude": 21.6273,
      "friends": []
    },
    {
      "name": "Reid West",
      "city": "Turin",
      "country": "Italy",
      "latitude": 45.0703,
      "longitude": 7.6869,
      "friends": [
        {
          "name": "Dennis Ellis",
          "meeting_city": "Dennis Ellis"
        },
        {
          "name": "Carol Henry",
          "meeting_city": "Reid West"
        },
        {
          "name": "Jose Robinson",
          "meeting_city": "Reid West"
        },
        {
          "name": "Donna Ross",
          "meeting_city": "Donna Ross"
        }
      ]
    },
    {
      "name": "David Kennedy",
      "city": "Birmingham",
      "country": "UK",
      "latitude": 52.4862,
      "longitude": -1.8904,
      "friends": [
        {
          "name": "Helen Kim",
          "meeting_city": "Turin"
        },
        {
          "name": "Ruth Howard",
          "meeting_city": "Dudelange"
        }
      ]
    },
    {
      "name": "Emily Porter",
      "city": "Iași",
      "country": "Romania",
      "latitude": 47.1585,
      "longitude": 27.6014,
      "friends": [
        {
          "name": "Jeffrey Rose",
          "meeting_city": "Wrocław"
        },
        {
          "name": "Laura Ford",
          "meeting_city": "Vila Nova de Gaia"
        },
        {
          "name": "Betty Anderson",
          "meeting_city": "Emily Porter"
        }
      ]
    },
    {
      "name": "Michelle Russell",
      "city": "Los Angeles",
      "country": "USA",
      "latitude": 34.0522,
      "longitude": -118.2437,
      "friends": []
    },
    {
      "name": "Sandra Edwards",
      "city": "Constanța",
      "country": "Romania",
      "latitude": 44.1733,
      "longitude": 28.6383,
      "friends": [
        {
          "name": "Andrew Mason",
          "meeting_city": "Andrew Mason"
        },
        {
          "name": "Lisa Robinson",
          "meeting_city": "Guadalajara"
        },
        {
          "name": "Daniel Chen",
          "meeting_city": "Daniel Chen"
        },
        {
          "name": "Milan Tran",
          "meeting_city": "Sandra Edwards"
        }
      ]
    },
    {
      "name": "Ariel Coleman",
      "city": "Narva",
      "country": "Estonia",
      "latitude": 59.3772,
      "longitude": 28.1903,
      "friends": []
    },
    {
      "name": "Nancy Scott",
      "city": "Piraeus",
      "country": "Greece",
      "latitude": 37.9485,
      "longitude": 23.6424,
      "friends": []
    },
    {
      "name": "Deborah Muñoz",
      "city": "Puebla",
      "country": "Mexico",
      "latitude": 19.0413,
      "longitude": -98.2062,
      "friends": [
        {
          "name": "Tanner Williams",
          "meeting_city": "Deborah Muñoz"
        },
        {
          "name": "Sandra Mcdonald",
          "meeting_city": "Deborah Muñoz"
        },
        {
          "name": "Michelle Sanchez",
          "meeting_city": "Michelle Sanchez"
        },
        {
          "name": "Kimberly Perry",
          "meeting_city": "Kimberly Perry"
        }
      ]
    },
    {
      "name": "Sandra Silva",
      "city": "Delhi",
      "country": "India",
      "latitude": 28.7041,
      "longitude": 77.1025,
      "friends": [
        {
          "name": "Donna Fernandez",
          "meeting_city": "Sandra Silva"
        },
        {
          "name": "Sharon Castillo",
          "meeting_city": "Sharon Castillo"
        }
      ]
    },
    {
      "name": "Dennis West",
      "city": "Žilina",
      "country": "Slovakia",
      "latitude": 49.2231,
      "longitude": 18.7394,
      "friends": [
        {
          "name": "Barry Webb",
          "meeting_city": "Barry Webb"
        },
        {
          "name": "Sharon Mendoza",
          "meeting_city": "Sharon Mendoza"
        },
        {
          "name": "Dorothy Burns",
          "meeting_city": "Szeged"
        },
        {
          "name": "Alexander White",
          "meeting_city": "Alexander White"
        }
      ]
    },
    {
      "name": "Sharon Allen",
      "city": "Västerås",
      "country": "Sweden",
      "latitude": 59.6163,
      "longitude": 16.5526,
      "friends": [
        {
          "name": "Donna Wagner",
          "meeting_city": "Sharon Allen"
        },
        {
          "name": "Susan Wilson",
          "meeting_city": "Susan Wilson"
        },
        {
          "name": "Barbara Tucker",
          "meeting_city": "Barbara Tucker"
        }
      ]
    },
    {
      "name": "Nancy Collins",
      "city": "Lisburn",
      "country": "Northern Ireland",
      "latitude": 54.5162,
      "longitude": -6.0581,
      "friends": []
    },
    {
      "name": "Alexander Peterson",
      "city": "Larissa",
      "country": "Greece",
      "latitude": 39.639,
      "longitude": 22.4191,
      "friends": [
        {
          "name": "Carlos Wells",
          "meeting_city": "Alexander Peterson"
        },
        {
          "name": "Lamont Collins",
          "meeting_city": "Alexander Peterson"
        },
        {
          "name": "Joel Simmons",
          "meeting_city": "Alexander Peterson"
        }
      ]
    },
    {
      "name": "Laura Simmons",
      "city": "Hafnarfjörður",
      "country": "Iceland",
      "latitude": 64.0291,
      "longitude": -21.9685,
      "friends": [
        {
          "name": "Collin Mendoza",
          "meeting_city": "Laura Simmons"
        },
        {
          "name": "Jarvis Turner",
          "meeting_city": "Pärnu"
        },
        {
          "name": "Benjamin Hicks",
          "meeting_city": "Benjamin Hicks"
        },
        {
          "name": "Helen Woods",
          "meeting_city": "Helen Woods"
        }
      ]
    },
    {
      "name": "Vic Wagner",
      "city": "Łódź",
      "country": "Poland",
      "latitude": 51.7592,
      "longitude": 19.4559,
      "friends": [
        {
          "name": "Helen Woods",
          "meeting_city": "Helen Woods"
        }
      ]
    },
    {
      "name": "Kimberly Stevens",
      "city": "Narva",
      "country": "Estonia",
      "latitude": 59.3772,
      "longitude": 28.1903,
      "friends": [
        {
          "name": "Tanner Williams",
          "meeting_city": "Busan"
        }
      ]
    },
    {
      "name": "Frederick Powell",
      "city": "Aarhus",
      "country": "Denmark",
      "latitude": 56.1629,
      "longitude": 10.2039,
      "friends": [
        {
          "name": "Theo Robertson",
          "meeting_city": "Theo Robertson"
        }
      ]
    },
    {
      "name": "Ruth Price",
      "city": "Amsterdam",
      "country": "Netherlands",
      "latitude": 52.3676,
      "longitude": 4.9041,
      "friends": [
        {
          "name": "Victor Patel",
          "meeting_city": "Victor Patel"
        },
        {
          "name": "Nancy Collins",
          "meeting_city": "Naples"
        },
        {
          "name": "Lamont Collins",
          "meeting_city": "Lamont Collins"
        }
      ]
    },
    {
      "name": "Gary Brooks",
      "city": "Pétange",
      "country": "Luxembourg",
      "latitude": 49.5586,
      "longitude": 5.8806,
      "friends": []
    },
    {
      "name": "Jonathan Gonzalez",
      "city": "Mumbai",
      "country": "India",
      "latitude": 19.076,
      "longitude": 72.8777,
      "friends": [
        {
          "name": "Herbert Olson",
          "meeting_city": "Jonathan Gonzalez"
        }
      ]
    },
    {
      "name": "Sharon Russell",
      "city": "Helsinki",
      "country": "Finland",
      "latitude": 60.1699,
      "longitude": 24.9384,
      "friends": [
        {
          "name": "Helen Woods",
          "meeting_city": "Helen Woods"
        },
        {
          "name": "Sharon Ellis",
          "meeting_city": "Maribor"
        },
        {
          "name": "Jose Robinson",
          "meeting_city": "Sharon Russell"
        }
      ]
    },
    {
      "name": "Sandra Price",
      "city": "Berlin",
      "country": "Germany",
      "latitude": 52.52,
      "longitude": 13.405,
      "friends": [
        {
          "name": "Carol Smith",
          "meeting_city": "Carol Smith"
        },
        {
          "name": "Helen Marshall",
          "meeting_city": "Odense"
        }
      ]
    },
    {
      "name": "Sandra Lopez",
      "city": "Wrocław",
      "country": "Poland",
      "latitude": 51.1079,
      "longitude": 17.0385,
      "friends": []
    },
    {
      "name": "Dante Crawford",
      "city": "Sydney",
      "country": "Australia",
      "latitude": -33.8688,
      "longitude": 151.2093,
      "friends": []
    },
    {
      "name": "Kimberly Fisher",
      "city": "Galway",
      "country": "Ireland",
      "latitude": 53.2707,
      "longitude": -9.0568,
      "friends": [
        {
          "name": "Helen Kim",
          "meeting_city": "Kimberly Fisher"
        },
        {
          "name": "Timothy Dixon",
          "meeting_city": "Timothy Dixon"
        }
      ]
    },
    {
      "name": "Adam Robinson",
      "city": "Poznań",
      "country": "Poland",
      "latitude": 52.4064,
      "longitude": 16.9252,
      "friends": [
        {
          "name": "Helen Shaw",
          "meeting_city": "Helen Shaw"
        }
      ]
    },
    {
      "name": "Laura Boyd",
      "city": "Nice",
      "country": "France",
      "latitude": 43.7102,
      "longitude": 7.262,
      "friends": [
        {
          "name": "James Peterson",
          "meeting_city": "Vancouver"
        }
      ]
    },
    {
      "name": "Benjamin Coleman",
      "city": "Rio de Janeiro",
      "country": "Brazil",
      "latitude": -22.9068,
      "longitude": -43.1729,
      "friends": []
    },
    {
      "name": "Roy Hughes",
      "city": "Cluj-Napoca",
      "country": "Romania",
      "latitude": 46.7712,
      "longitude": 23.6236,
      "friends": [
        {
          "name": "Kimberly Perry",
          "meeting_city": "Kimberly Perry"
        },
        {
          "name": "Mike Ross",
          "meeting_city": "Mike Ross"
        },
        {
          "name": "Lisa Holmes",
          "meeting_city": "Osaka"
        },
        {
          "name": "Emory Robertson",
          "meeting_city": "Roy Hughes"
        }
      ]
    },
    {
      "name": "Tanner Coleman",
      "city": "Lyon",
      "country": "France",
      "latitude": 45.764,
      "longitude": 4.8357,
      "friends": [
        {
          "name": "Dennis West",
          "meeting_city": "Bangalore"
        }
      ]
    },
    {
      "name": "Frederick Anderson",
      "city": "Sydney",
      "country": "Australia",
      "latitude": -33.8688,
      "longitude": 151.2093,
      "friends": []
    },
    {
      "name": "Avery Stewart",
      "city": "Bangor",
      "country": "Northern Ireland",
      "latitude": 54.6598,
      "longitude": -5.6696,
      "friends": [
        {
          "name": "Joel Simmons",
          "meeting_city": "Avery Stewart"
        }
      ]
    },
    {
      "name": "Willie Shaw",
      "city": "Liverpool",
      "country": "UK",
      "latitude": 53.4084,
      "longitude": -2.9916,
      "friends": [
        {
          "name": "Karen Morales",
          "meeting_city": "Willie Shaw"
        },
        {
          "name": "Joseph Graham",
          "meeting_city": "Sydney"
        }
      ]
    },
    {
      "name": "Carlos Ross",
      "city": "Celje",
      "country": "Slovenia",
      "latitude": 46.2309,
      "longitude": 15.2604,
      "friends": []
    },
    {
      "name": "Ruth Jordan",
      "city": "Jūrmala",
      "country": "Latvia",
      "latitude": 56.9682,
      "longitude": 23.7703,
      "friends": []
    },
    {
      "name": "Erwin Ramos",
      "city": "Daegu",
      "country": "South Korea",
      "latitude": 35.8714,
      "longitude": 128.6014,
      "friends": [
        {
          "name": "Sandra Silva",
          "meeting_city": "Sandra Silva"
        },
        {
          "name": "Karen Morales",
          "meeting_city": "Erwin Ramos"
        },
        {
          "name": "Laura Boyd",
          "meeting_city": "Erwin Ramos"
        }
      ]
    },
    {
      "name": "Deborah Herrera",
      "city": "Calgary",
      "country": "Canada",
      "latitude": 51.0447,
      "longitude": -114.0719,
      "friends": []
    },
    {
      "name": "Kimberly Hicks",
      "city": "Uppsala",
      "country": "Sweden",
      "latitude": 59.8586,
      "longitude": 17.6389,
      "friends": [
        {
          "name": "Theo Robertson",
          "meeting_city": "Kimberly Hicks"
        }
      ]
    },
    {
      "name": "Laura Kim",
      "city": "Tokyo",
      "country": "Japan",
      "latitude": 35.6762,
      "longitude": 139.6503,
      "friends": []
    },
    {
      "name": "Ruth Castillo",
      "city": "Kranj",
      "country": "Slovenia",
      "latitude": 46.2389,
      "longitude": 14.3556,
      "friends": [
        {
          "name": "Scott Gordon",
          "meeting_city": "Scott Gordon"
        },
        {
          "name": "Deborah Marshall",
          "meeting_city": "Deborah Marshall"
        },
        {
          "name": "Daniel Stone",
          "meeting_city": "Daniel Stone"
        },
        {
          "name": "Betty Henderson",
          "meeting_city": "Betty Henderson"
        }
      ]
    },
    {
      "name": "Donn Harris",
      "city": "Dudelange",
      "country": "Luxembourg",
      "latitude": 49.4808,
      "longitude": 6.0875,
      "friends": [
        {
          "name": "Alan Patel",
          "meeting_city": "Donn Harris"
        },
        {
          "name": "Willie Phillips",
          "meeting_city": "Toronto"
        }
      ]
    },
    {
      "name": "Sharon Hall",
      "city": "Nagoya",
      "country": "Japan",
      "latitude": 35.1815,
      "longitude": 136.9066,
      "friends": [
        {
          "name": "Helen Campbell",
          "meeting_city": "Helen Campbell"
        },
        {
          "name": "Jordan Chavez",
          "meeting_city": "Salzburg"
        },
        {
          "name": "Donna Wagner",
          "meeting_city": "Sharon Hall"
        },
        {
          "name": "Laura Simmons",
          "meeting_city": "Sharon Hall"
        }
      ]
    },
    {
      "name": "Sandra Moreno",
      "city": "Brisbane",
      "country": "Australia",
      "latitude": -27.4698,
      "longitude": 153.0251,
      "friends": [
        {
          "name": "Karen Snyder",
          "meeting_city": "Karen Snyder"
        },
        {
          "name": "Nancy Collins",
          "meeting_city": "Sandra Moreno"
        },
        {
          "name": "Sharon Russell",
          "meeting_city": "Sandra Moreno"
        }
      ]
    },
    {
      "name": "Theo Castillo",
      "city": "Ljubljana",
      "country": "Slovenia",
      "latitude": 46.0569,
      "longitude": 14.5058,
      "friends": []
    },
    {
      "name": "Emily Patterson",
      "city": "Naples",
      "country": "Italy",
      "latitude": 40.8518,
      "longitude": 14.2681,
      "friends": [
        {
          "name": "Paul Ross",
          "meeting_city": "Emily Patterson"
        }
      ]
    },
    {
      "name": "Michelle Hunter",
      "city": "Newry",
      "country": "Northern Ireland",
      "latitude": 54.1759,
      "longitude": -6.3374,
      "friends": [
        {
          "name": "Laura Kim",
          "meeting_city": "Michelle Hunter"
        }
      ]
    },
    {
      "name": "Oscar Hunter",
      "city": "Banská Bystrica",
      "country": "Slovakia",
      "latitude": 48.7363,
      "longitude": 19.1531,
      "friends": [
        {
          "name": "Donna Dixon",
          "meeting_city": "Donna Dixon"
        },
        {
          "name": "William Carter",
          "meeting_city": "Oscar Hunter"
        }
      ]
    },
    {
      "name": "Kendrick Moore",
      "city": "Wrocław",
      "country": "Poland",
      "latitude": 51.1079,
      "longitude": 17.0385,
      "friends": []
    },
    {
      "name": "Laura Washington",
      "city": "Sydney",
      "country": "Australia",
      "latitude": -33.8688,
      "longitude": 151.2093,
      "friends": [
        {
          "name": "Walter Thompson",
          "meeting_city": "Laura Washington"
        }
      ]
    },
    {
      "name": "Patrick Cox",
      "city": "Oslo",
      "country": "Norway",
      "latitude": 59.9139,
      "longitude": 10.7522,
      "friends": [
        {
          "name": "Sharon Russell",
          "meeting_city": "Žilina"
        }
      ]
    },
    {
      "name": "Nancy Aguilar",
      "city": "Lyon",
      "country": "France",
      "latitude": 45.764,
      "longitude": 4.8357,
      "friends": []
    },
    {
      "name": "Matthew Ward",
      "city": "Vilnius",
      "country": "Lithuania",
      "latitude": 54.6872,
      "longitude": 25.2797,
      "friends": [
        {
          "name": "Karen Sanchez",
          "meeting_city": "Matthew Ward"
        },
        {
          "name": "Joshua Price",
          "meeting_city": "Joshua Price"
        }
      ]
    },
    {
      "name": "Michelle Powell",
      "city": "Chicago",
      "country": "USA",
      "latitude": 41.8781,
      "longitude": -87.6298,
      "friends": []
    },
    {
      "name": "Thomas Wood",
      "city": "Athens",
      "country": "Greece",
      "latitude": 37.9838,
      "longitude": 23.7275,
      "friends": [
        {
          "name": "Tanner Coleman",
          "meeting_city": "Tanner Coleman"
        }
      ]
    },
    {
      "name": "Sandra Vargas",
      "city": "Vienna",
      "country": "Austria",
      "latitude": 48.2082,
      "longitude": 16.3738,
      "friends": []
    },
    {
      "name": "Phillip Webb",
      "city": "Shanghai",
      "country": "China",
      "latitude": 31.2304,
      "longitude": 121.4737,
      "friends": []
    },
    {
      "name": "Lawrence Phillips",
      "city": "Luxembourg City",
      "country": "Luxembourg",
      "latitude": 49.6116,
      "longitude": 6.1319,
      "friends": [
        {
          "name": "Nathan Hill",
          "meeting_city": "Munich"
        },
        {
          "name": "Deborah Hayes",
          "meeting_city": "Deborah Hayes"
        },
        {
          "name": "Emily Porter",
          "meeting_city": "Lawrence Phillips"
        }
      ]
    },
    {
      "name": "Joshua Howard",
      "city": "Gothenburg",
      "country": "Sweden",
      "latitude": 57.7089,
      "longitude": 11.9746,
      "friends": []
    },
    {
      "name": "Edwin Coleman",
      "city": "Innsbruck",
      "country": "Austria",
      "latitude": 47.2692,
      "longitude": 11.4041,
      "friends": []
    },
    {
      "name": "Carol Henry",
      "city": "San Antonio",
      "country": "USA",
      "latitude": 29.4241,
      "longitude": -98.4936,
      "friends": []
    },
    {
      "name": "Leroy Dixon",
      "city": "San Diego",
      "country": "USA",
      "latitude": 32.7157,
      "longitude": -117.1611,
      "friends": []
    },
    {
      "name": "Helen Clark",
      "city": "Galway",
      "country": "Ireland",
      "latitude": 53.2707,
      "longitude": -9.0568,
      "friends": [
        {
          "name": "Kyle Brooks",
          "meeting_city": "Vienna"
        },
        {
          "name": "Paul Ross",
          "meeting_city": "Paul Ross"
        },
        {
          "name": "Raymond Mendoza",
          "meeting_city": "Raymond Mendoza"
        },
        {
          "name": "Joel Simmons",
          "meeting_city": "Joel Simmons"
        }
      ]
    },
    {
      "name": "Ernest Black",
      "city": "Montreal",
      "country": "Canada",
      "latitude": 45.5017,
      "longitude": -73.5673,
      "friends": []
    },
    {
      "name": "Burt Gibson",
      "city": "Turin",
      "country": "Italy",
      "latitude": 45.0703,
      "longitude": 7.6869,
      "friends": []
    },
    {
      "name": "Jordan Bailey",
      "city": "Leeds",
      "country": "UK",
      "latitude": 53.8008,
      "longitude": -1.5491,
      "friends": [
        {
          "name": "Ruth Jordan",
          "meeting_city": "Dublin"
        },
        {
          "name": "Theo Castillo",
          "meeting_city": "Jordan Bailey"
        },
        {
          "name": "Benjamin Coleman",
          "meeting_city": "Jordan Bailey"
        },
        {
          "name": "Sharon Patel",
          "meeting_city": "Sharon Patel"
        }
      ]
    },
    {
      "name": "Christopher Mendoza",
      "city": "Iași",
      "country": "Romania",
      "latitude": 47.1585,
      "longitude": 27.6014,
      "friends": [
        {
          "name": "Lamont Collins",
          "meeting_city": "Christopher Mendoza"
        }
      ]
    },
    {
      "name": "Kris Murphy",
      "city": "Sofia",
      "country": "Bulgaria",
      "latitude": 42.6977,
      "longitude": 23.3219,
      "friends": [
        {
          "name": "Karen Sanchez",
          "meeting_city": "Kris Murphy"
        },
        {
          "name": "Herbert Wells",
          "meeting_city": "Kris Murphy"
        },
        {
          "name": "Jonathan Barnes",
          "meeting_city": "Differdange"
        },
        {
          "name": "Carol Brooks",
          "meeting_city": "Carol Brooks"
        }
      ]
    },
    {
      "name": "Betty Taylor",
      "city": "Calgary",
      "country": "Canada",
      "latitude": 51.0447,
      "longitude": -114.0719,
      "friends": [
        {
          "name": "Joshua Price",
          "meeting_city": "Betty Taylor"
        },
        {
          "name": "Collin Mendoza",
          "meeting_city": "Collin Mendoza"
        }
      ]
    },
    {
      "name": "Carol Hamilton",
      "city": "Nagoya",
      "country": "Japan",
      "latitude": 35.1815,
      "longitude": 136.9066,
      "friends": []
    },
    {
      "name": "Michelle Johnson",
      "city": "Fukuoka",
      "country": "Japan",
      "latitude": 33.5902,
      "longitude": 130.4017,
      "friends": [
        {
          "name": "Sandra Silva",
          "meeting_city": "Michelle Johnson"
        }
      ]
    },
    {
      "name": "Leigh Jenkins",
      "city": "Kraków",
      "country": "Poland",
      "latitude": 50.0647,
      "longitude": 19.945,
      "friends": [
        {
          "name": "Avery Stewart",
          "meeting_city": "Avery Stewart"
        },
        {
          "name": "Deborah Howard",
          "meeting_city": "Deborah Howard"
        },
        {
          "name": "Joseph Graham",
          "meeting_city": "Leigh Jenkins"
        },
        {
          "name": "Nancy Patel",
          "meeting_city": "Nancy Patel"
        },
        {
          "name": "Jarred Ford",
          "meeting_city": "Jarred Ford"
        }
      ]
    },
    {
      "name": "Carol Aguilar",
      "city": "Dudelange",
      "country": "Luxembourg",
      "latitude": 49.4808,
      "longitude": 6.0875,
      "friends": [
        {
          "name": "Brandon Hayes",
          "meeting_city": "Carol Aguilar"
        },
        {
          "name": "Karen Hicks",
          "meeting_city": "Karen Hicks"
        },
        {
          "name": "Jeffrey Guzman",
          "meeting_city": "Jeffrey Guzman"
        },
        {
          "name": "Nancy Boyd",
          "meeting_city": "Carol Aguilar"
        },
        {
          "name": "Samuel Gibson",
          "meeting_city": "Samuel Gibson"
        }
      ]
    },
    {
      "name": "Kimberly Howard",
      "city": "New York",
      "country": "USA",
      "latitude": 40.7128,
      "longitude": -74.006,
      "friends": [
        {
          "name": "William Carter",
          "meeting_city": "Kimberly Howard"
        },
        {
          "name": "Deborah Russell",
          "meeting_city": "Žilina"
        },
        {
          "name": "Chip Hamilton",
          "meeting_city": "Chip Hamilton"
        }
      ]
    },
    {
      "name": "George Gray",
      "city": "Poznań",
      "country": "Poland",
      "latitude": 52.4064,
      "longitude": 16.9252,
      "friends": [
        {
          "name": "Deborah Herrera",
          "meeting_city": "George Gray"
        }
      ]
    },
    {
      "name": "Ethan Ward",
      "city": "Kraków",
      "country": "Poland",
      "latitude": 50.0647,
      "longitude": 19.945,
      "friends": []
    },
    {
      "name": "Michelle Henderson",
      "city": "Copenhagen",
      "country": "Denmark",
      "latitude": 55.6761,
      "longitude": 12.5683,
      "friends": [
        {
          "name": "Karen Kim",
          "meeting_city": "Michelle Henderson"
        }
      ]
    },